
 { "growers": [
    {
    "id": 1,
    "name": "Mickey Mouse",
    "neighborhood": "Centennial Farms",
    "photograph": "1.jpg",
    "address": "1557 Cattleman Court Milliken, CO 80543",
    "latlng": {
      "lat": 40.3163286,
      "lng": -104.8499167
  }
    }, 
    {
    "id": 2,
    "name": "Donald Duck",
    "neighborhood": "Centennial Farms",
    "photograph": "2.jpg",
    "address": "1271 S. Haymaker Dr, Milliken, CO 80543",
    "latlng": {
      "lat": 40.3185015,
      "lng": -104.8571216
  }
  },
 {
    "id": 3,
    "name": "Minnie Mouse",
    "neighborhood": "Centennial Farms",
    "photograph": "4.jpg",
    "address": "1341 Farmland Lane, Milliken, CO 80543",
    "latlng": {
      "lat": 40.3186919,
      "lng":-104.8519208
  }
},
    {
    "id": 4,
    "name": "Mickey Mouse",
    "neighborhood": "Centennial Farms",
    "photograph": "1.jpg",
    "address": "1305 S. Cattleman Dr, Milliken, CO",
    "latlng": {
      "lat": 40.3177248,
      "lng": -104.8502498
  }
    }, 
    {
    "id": 5,
    "name": "Goofy",
    "neighborhood": "Centennial Farms",
    "photograph": "2.jpg",
    "address": "1322 S. Cora Ave, Milliken, CO 80543",
    "latlng": {
      "lat": 40.31778815,
      "lng": -104.8510198
  }
  },
 {
    "id": 6,
    "name": "Boober",
    "neighborhood": "Old Town Milliken",
    "photograph": "4.jpg",
    "address": "307 S. Olive Ave, Milliken, CO",
    "latlng": {
      "lat": 40.3275678,
      "lng": -104.8654943
  }
},
    {
    "id": 7,
    "name": "Gobo",
    "neighborhood": "Old Town Milliken",
    "photograph": "1.jpg",
    "address": "107 N. Olive Ave, Milliken, CO",
    "latlng": {
      "lat": 40.3304652,
      "lng": -104.8654143
  }
    }, 
    {
    "id": 8,
    "name": "Red",
    "neighborhood": "Old Town Milliken",
    "photograph": "2.jpg",
    "address": "108 N. Olive Ave, Milliken, CO",
    "latlng": {
      "lat": 40.3304743,
      "lng": -104.8651985
  }
  },
 {
    "id": 9,
    "name": "Mokey",
    "neighborhood": "Old Town Milliken",
    "photograph": "4.jpg",
    "address": "106 N. Olive Ave, Milliken, CO",
    "latlng": {
      "lat": 40.3304602,
      "lng": -104.8651992
  }
},
    {
    "id": 10,
    "name": "Wembly",
    "neighborhood": "Old Town Milliken",
    "photograph": "1.jpg",
    "address": "306 Broad St, Milliken, CO",
    "latlng": {
      "lat": 40.3302112,
      "lng": -104.8651025
  }
    }, 
    {
    "id": 11,
    "name": "Captain America",
    "neighborhood": "Colony Point",
    "photograph": "2.jpg",
    "address": "794 Saddleback Dr, Milliken, CO",
    "latlng": {
      "lat": 40.3222326,
      "lng": -104.8456408
  }
  },
 {
    "id": 12,
    "name": "Iron Man",
    "neighborhood": "Colony Point",
    "photograph": "4.jpg",
    "address": "711 Wagon Train Dr, Milliken, CO",
    "latlng": {
      "lat": 40.3236211,
      "lng": -104.8478199
  }
},
{
    "id": 13,
    "name": "Spider Man",
    "neighborhood": "Colony Point",
    "photograph": "1.jpg",
    "address": "235 S. Tamera Ave, Milliken, CO",
    "latlng": {
      "lat": 40.3285792,
      "lng": -104.8704677
  }
    }, 
    {
    "id": 14,
    "name": "Black Widow",
    "neighborhood": "Colony Point",
    "photograph": "2.jpg",
    "address": "612 Traildust Dr, Milliken, CO",
    "latlng": {
      "lat": 40.3234622,
      "lng": -104.846636
  }
  },
 {
    "id": 15,
    "name": "Han Solo",
    "neighborhood": "Frank Farms",
    "photograph": "4.jpg",
    "address": "381 W. Cottonwood St, Milliken, CO",
    "latlng": {
      "lat": 40.3299803,
      "lng": -104.8714728
  }
},
    {
    "id": 16,
    "name": "Princess Leia",
    "neighborhood": "Frank Farms",
    "photograph": "1.jpg",
    "address": "202 S. Quentine Ave, Milliken, CO",
    "latlng": {
      "lat": 40.3288909,
      "lng": -104.867537
  }
    }, 
    {
    "id": 17,
    "name": "Luke Skywalker",
    "neighborhood": "Frank Farms",
    "photograph": "2.jpg",
    "address": "542 S. Savannah Circle, Milliken, CO",
    "latlng": {
      "lat": 40.3259837,
      "lng": -104.869235
  }
  },
 {
    "id": 18,
    "name": "Obi Wan",
    "neighborhood": "Frank Farms",
    "photograph": "4.jpg",
    "address": "67 W. Hawthorne St, Milliken, CO",
    "latlng": {
      "lat": 40.326402,
      "lng": -104.868842
  }
},
    {
    "id": 19,
    "name": "Darth Vader",
    "neighborhood": "Frank Farms",
    "photograph": "1.jpg",
    "address": "240 E. Juneberry St, Milliken, CO",
    "latlng": {
      "lat": 40.323572,
      "lng": -104.864996
  }
    }, 
    {
    "id": 20,
    "name": "Spock",
    "neighborhood": "Mad Russian",
    "photograph": "2.jpg",
    "address": "351 Heidie Lane, Milliken, CO",
    "latlng": {
      "lat": 40.3532771,
      "lng": -104.8710335
  }
  },
 {
    "id": 21,
    "name": "Bones",
    "neighborhood": "Mad Russian",
    "photograph": "4.jpg",
    "address": "412 Heidie Lane, Milliken, CO",
    "latlng": {
      "lat": 40.353013,
      "lng": -104.871629
  }
},
    {
    "id": 22,
    "name": "James T Kirk",
    "neighborhood": "Mad Russian",
    "photograph": "1.jpg",
    "address": "97 Double Eagle Dr, Milliken, CO",
    "latlng": {
      "lat": 40.3545575,
      "lng": -104.8724245
  }
    }, 
    {
    "id": 23,
    "name": "Scottie",
    "neighborhood": "Mad Russian",
    "photograph": "2.jpg",
    "address": "2245 Birdie Way, Milliken, CO",
    "latlng": {
      "lat": 40.3506538,
      "lng": -104.8731847
  }
  },
 {
    "id": 24,
    "name": "Ariel",
    "neighborhood": "Settlers Village",
    "photograph": "4.jpg",
    "address": "2544 Carriage Dr, Milliken, CO",
    "latlng": {
      "lat": 40.722216,
      "lng": -73.987501
  }
},
    {
    "id": 25,
    "name": "Cinderella",
    "neighborhood": "Settlers Village",
    "photograph": "2.jpg",
    "address": "462 S. Carriage Dr, Milliken, CO",
    "latlng": {
      "lat": 40.325561,
      "lng": -104.834907
  }
  },
 {
    "id": 226,
    "name": "Snow White",
    "neighborhood": "Settlers Village",
    "photograph": "4.jpg",
    "address": "624 Schoolhouse Dr, Milliken, CO",
    "latlng": {
      "lat": 40.325075,
      "lng": -104.835686
  }
},
    {
    "id": 27,
    "name": "Belle",
    "neighborhood": "Settlers Village",
    "photograph": "1.jpg",
    "address": "2522 Stage Coach Dr, Milliken, CO",
    "latlng": {
      "lat": 40.3278195,
      "lng": -104.8368156
  }
    }, 
    {
    "id": 28,
    "name": "Jasmine",
    "neighborhood": "Settlers Village",
    "photograph": "2.jpg",
    "address": "2192 Stage Coach Dr, Milliken, CO",
    "latlng": {
      "lat": 40.3278975,
      "lng": -104.8399037
  }
  }
 
     ]
}